canonical_brand,name,address,latitude,longitude,confidence_score,warnings,osm_type,osm_id,source,is_duplicate,reverse_status,reverse_address,reverse_display_name,reverse_city,reverse_district,reverse_suburb,reverse_street,reverse_house_number,reverse_postcode,reverse_osm_type,reverse_osm_id,reverse_error
Лента,Торговый комплекс «Лента»,"Санкт-Петербург, Стартовая улица",59.810193,30.3183762,0.0,SHOP_TAG_MISSING;DUPLICATE_CANDIDATE;REVERSE_GEOCODED,node,621455195,osm_pbf,True,found,"Санкт-Петербург, Стартовая улица","Торговый комплекс «Лента», Стартовая улица, Авиагородок, округ Пулковский меридиан, Санкт-Петербург, Северо-Западный федеральный округ, 196246, Россия",Санкт-Петербург,округ Пулковский меридиан,Авиагородок,Стартовая улица,,196246,node,621455195,
Лента,торговый комплекс «Лента»,"Санкт-Петербург, улица Савушкина, 112",59.9855844,30.2265365,0.0,SHOP_TAG_MISSING;DUPLICATE_CANDIDATE;REVERSE_GEOCODED,node,1461953472,osm_pbf,True,found,"Санкт-Петербург, улица Савушкина, 112","Гипер Лента, 112, улица Савушкина, Северо-Приморская часть, округ № 65, Санкт-Петербург, Северо-Западный федеральный округ, 197374, Россия",Санкт-Петербург,округ № 65,Северо-Приморская часть,улица Савушкина,112,197374,way,10503632,
ОКЕЙ,супермаркет «О'Кей»,"Санкт-Петербург, Пулковское шоссе",59.8279718,30.3229703,0.0,SHOP_TAG_MISSING;DUPLICATE_CANDIDATE;REVERSE_GEOCODED,node,1557354819,osm_pbf,True,found,"Санкт-Петербург, Пулковское шоссе","Пулковское шоссе, Ленинградская сторона, Средняя Рогатка, округ Звёздное, Санкт-Петербург, Северо-Западный федеральный округ, 196246, Россия",Санкт-Петербург,округ Звёздное,Средняя Рогатка,Пулковское шоссе,,196246,way,222104770,
Лента,торговый комплекс «Лента»,"Санкт-Петербург, улица Савушкина",59.9857078,30.2266313,0.0,SHOP_TAG_MISSING;DUPLICATE_CANDIDATE;REVERSE_GEOCODED,node,1669466215,osm_pbf,True,found,"Санкт-Петербург, улица Савушкина","торговый комплекс «Лента», улица Савушкина, Северо-Приморская часть, округ № 65, Санкт-Петербург, Северо-Западный федеральный округ, 197374, Россия",Санкт-Петербург,округ № 65,Северо-Приморская часть,улица Савушкина,,197374,node,1669466215,
Лента,Торговый комплекс «Лента»,"Санкт-Петербург, Дальневосточный проспект",59.9082317,30.4479325,0.0,SHOP_TAG_MISSING;DUPLICATE_CANDIDATE;REVERSE_GEOCODED,node,1734565693,osm_pbf,True,found,"Санкт-Петербург, Дальневосточный проспект","Торговый комплекс «Лента», Дальневосточный проспект, Клочки, Невский округ, Санкт-Петербург, Северо-Западный федеральный округ, 193313, Россия",Санкт-Петербург,,Клочки,Дальневосточный проспект,,193313,node,1734565693,
Пятёрочка,,"Санкт-Петербург, Индустриальный проспект, 10 к1 литБ",59.9392409,30.4752719,0.0,SHOP_TAG_MISSING;DUPLICATE_CANDIDATE;REVERSE_GEOCODED,node,1754622542,osm_pbf,True,found,"Санкт-Петербург, Индустриальный проспект, 10 к1 литБ","Газпромбанк, 10 к1 литБ, Индустриальный проспект, округ Пороховые, Санкт-Петербург, Северо-Западный федеральный округ, 195426, Россия",Санкт-Петербург,округ Пороховые,,Индустриальный проспект,10 к1 литБ,195426,node,1754622542,
ОКЕЙ,Гипермаркет «О'Кей»,"Санкт-Петербург, Приморское шоссе",59.9867769,30.2276682,0.0,SHOP_TAG_MISSING;DUPLICATE_CANDIDATE;REVERSE_GEOCODED,node,1777786553,osm_pbf,True,found,"Санкт-Петербург, Приморское шоссе","Приморское шоссе, Старая Деревня, округ № 65, Санкт-Петербург, Северо-Западный федеральный округ, 197374, Россия",Санкт-Петербург,округ № 65,Старая Деревня,Приморское шоссе,,197374,way,136058447,
Лента,торговый комплекс «Лента»,"Санкт-Петербург, улица Савушкина",59.9860479,30.2255831,0.0,SHOP_TAG_MISSING;DUPLICATE_CANDIDATE;REVERSE_GEOCODED,node,1801877377,osm_pbf,True,found,"Санкт-Петербург, улица Савушкина","торговый комплекс «Лента», улица Савушкина, Северо-Приморская часть, округ № 65, Санкт-Петербург, Северо-Западный федеральный округ, 197374, Россия",Санкт-Петербург,округ № 65,Северо-Приморская часть,улица Савушкина,,197374,node,1801877377,
ОКЕЙ,,"Санкт-Петербург, Пулковское шоссе, 17 к2",59.82778,30.3170532,0.4,SHOP_TAG_MISSING;DUPLICATE_CANDIDATE,node,1905674852,osm_pbf,True,skipped_existing_address,,,,,,,,,,,
Лента,Гипермаркет «Лента»,"Санкт-Петербург, Хасанская улица",59.9354941,30.4955706,0.0,SHOP_TAG_MISSING;DUPLICATE_CANDIDATE;REVERSE_GEOCODED,node,2382359600,osm_pbf,True,found,"Санкт-Петербург, Хасанская улица","Гипермаркет «Лента», Хасанская улица, округ Пороховые, Санкт-Петербург, Северо-Западный федеральный округ, 195298, Россия",Санкт-Петербург,округ Пороховые,,Хасанская улица,,195298,node,2382359600,
Пятёрочка,,"Гатчина, проспект 25 Октября",59.5751903,30.1290724,0.0,SHOP_TAG_MISSING;DUPLICATE_CANDIDATE;REVERSE_GEOCODED,node,2985577978,osm_pbf,True,found,"Гатчина, проспект 25 Октября","проспект 25 Октября, Рощинский, Гатчина, Гатчинский муниципальный округ, Ленинградская область, Северо-Западный федеральный округ, 188309, Россия",Гатчина,Гатчинский муниципальный округ,Рощинский,проспект 25 Октября,,188309,node,2985577978,
Лента,Гипермаркет «Лента»,"Санкт-Петербург, Хасанская улица, 22 к1",59.9356514,30.4950392,0.0,SHOP_TAG_MISSING;DUPLICATE_CANDIDATE;REVERSE_GEOCODED,node,3062459551,osm_pbf,True,found,"Санкт-Петербург, Хасанская улица, 22 к1","22 к1, Хасанская улица, округ Пороховые, Санкт-Петербург, Северо-Западный федеральный округ, 195298, Россия",Санкт-Петербург,округ Пороховые,,Хасанская улица,22 к1,195298,way,23917946,
Лента,торговый комплекс «Лента»,"Санкт-Петербург, улица Савушкина, 119",59.9859636,30.2255323,0.0,SHOP_TAG_MISSING;DUPLICATE_CANDIDATE;REVERSE_GEOCODED,node,3071413470,osm_pbf,True,found,"Санкт-Петербург, улица Савушкина, 119","119, улица Савушкина, Северо-Приморская часть, округ № 65, Санкт-Петербург, Северо-Западный федеральный округ, 197374, Россия",Санкт-Петербург,округ № 65,Северо-Приморская часть,улица Савушкина,119,197374,way,23772815,
Пятёрочка,Пятёрочка,"Санкт-Петербург, Замшина улица, 28",59.9735656,30.3988586,0.3,DUPLICATE_CANDIDATE;REVERSE_GEOCODED,node,3347836569,osm_pbf,True,found,"Санкт-Петербург, Замшина улица, 28","Пятёрочка, 28, Замшина улица, Полюстрово, Финляндский округ, Санкт-Петербург, Северо-Западный федеральный округ, 195197, Россия",Санкт-Петербург,Финляндский округ,Полюстрово,Замшина улица,28,195197,node,3347836569,
Пятёрочка,Пятёрочка,"улица Шувалова, 3",60.0518345,30.4236435,0.3,SHOP_TAG_MISSING;DUPLICATE_CANDIDATE,node,3751518139,osm_pbf,True,skipped_existing_address,,,,,,,,,,,
Пятёрочка,ПВ-10м3,"Вырица, Коммунальный проспект",59.4130232,30.3438089,0.0,SHOP_TAG_MISSING;DUPLICATE_CANDIDATE;REVERSE_GEOCODED,node,3757443626,osm_pbf,True,found,"Вырица, Коммунальный проспект","ПВ-10м3, Коммунальный проспект, Княжеская долина, Вырица, Гатчинский муниципальный округ, Ленинградская область, Северо-Западный федеральный округ, 188380, Россия",Вырица,Гатчинский муниципальный округ,Княжеская долина,Коммунальный проспект,,188380,node,3757443626,
Пятёрочка,,"Октябрьский бульвар, 7",59.7248353,30.4065893,0.3,SHOP_TAG_MISSING;DUPLICATE_CANDIDATE,node,4336029059,osm_pbf,True,skipped_existing_address,,,,,,,,,,,
Пятёрочка,,"Пушкин, Октябрьский бульвар, 7",59.7248425,30.4065685,0.4,SHOP_TAG_MISSING;DUPLICATE_CANDIDATE,node,4336029060,osm_pbf,True,skipped_existing_address,,,,,,,,,,,
Пятёрочка,Пятёрочка,"Волосово, проспект Вингиссара, 85",59.451099,29.4859921,0.3,DUPLICATE_CANDIDATE;REVERSE_GEOCODED,node,4407796994,osm_pbf,True,found,"Волосово, проспект Вингиссара, 85","Пятёрочка, 85, проспект Вингиссара, Волосово, Волосовский район, Ленинградская область, Северо-Западный федеральный округ, 188410, Россия",Волосово,Волосовский район,,проспект Вингиссара,85,188410,node,4407796994,
Лента,Лента Кафе,"улица Руставели, 61",60.0312801,30.4341181,0.3,SHOP_TAG_MISSING;DUPLICATE_CANDIDATE,node,4495445690,osm_pbf,True,skipped_existing_address,,,,,,,,,,,
Пятёрочка,Пятёрочка,"Пушкин, Октябрьский бульвар, 7/29",59.7248448,30.4064847,0.3,DUPLICATE_CANDIDATE;REVERSE_GEOCODED,node,4718332112,osm_pbf,True,found,"Пушкин, Октябрьский бульвар, 7/29","Пятёрочка, 7/29, Октябрьский бульвар, Пушкин, Санкт-Петербург, Северо-Западный федеральный округ, 196607, Россия",Пушкин,,,Октябрьский бульвар,7/29,196607,node,4718332112,
Азбука вкуса,,"Санкт-Петербург, Московский проспект, 111",59.8890347,30.3188864,0.1,DUPLICATE_CANDIDATE;REVERSE_GEOCODED,node,4782922833,osm_pbf,True,found,"Санкт-Петербург, Московский проспект, 111","111, Московский проспект, Ближняя Рогатка, округ Московская застава, Санкт-Петербург, Северо-Западный федеральный округ, 196006, Россия",Санкт-Петербург,,Ближняя Рогатка,Московский проспект,111,196006,node,4782922833,
Лента,Экобокс,"Санкт-Петербург, Уральская улица, 29 к1",59.9566911,30.2445796,0.0,SHOP_TAG_MISSING;DUPLICATE_CANDIDATE;REVERSE_GEOCODED,node,5106084744,osm_pbf,True,found,"Санкт-Петербург, Уральская улица, 29 к1","Экобокс, 29 к1, Уральская улица, округ Остров Декабристов, Санкт-Петербург, Северо-Западный федеральный округ, 199155, Россия",Санкт-Петербург,округ Остров Декабристов,,Уральская улица,29 к1,199155,node,5106084744,
Лента,,"Мурино, улица Шувалова, 1",60.0507489,30.4228105,0.0,SHOP_TAG_MISSING;DUPLICATE_CANDIDATE;REVERSE_GEOCODED,node,5274652626,osm_pbf,True,found,"Мурино, улица Шувалова, 1","Сбербанк, 1, улица Шувалова, Западное Мурино, Западный микрорайон, Мурино, Муринское городское поселение, Всеволожский район, Ленинградская область, Северо-Западный федеральный округ, 188662, Россия",Мурино,Всеволожский район,Западное Мурино,улица Шувалова,1,188662,node,5274652626,
Лента,,"Мурино, улица Шувалова, 1",60.0507347,30.4227974,0.0,SHOP_TAG_MISSING;DUPLICATE_CANDIDATE;REVERSE_GEOCODED,node,5625789355,osm_pbf,True,found,"Мурино, улица Шувалова, 1","Сбербанк, 1, улица Шувалова, Западное Мурино, Западный микрорайон, Мурино, Муринское городское поселение, Всеволожский район, Ленинградская область, Северо-Западный федеральный округ, 188662, Россия",Мурино,Всеволожский район,Западное Мурино,улица Шувалова,1,188662,node,5625789355,
ОКЕЙ,супермаркет «О'Кей»,"Санкт-Петербург, Пулковское шоссе",59.8272362,30.3221811,0.0,SHOP_TAG_MISSING;DUPLICATE_CANDIDATE;REVERSE_GEOCODED,node,6845435209,osm_pbf,True,found,"Санкт-Петербург, Пулковское шоссе","супермаркет «О'Кей», Пулковское шоссе, Красноборская сторона, округ Пулковский меридиан, Санкт-Петербург, Северо-Западный федеральный округ, 196246, Россия",Санкт-Петербург,округ Пулковский меридиан,Красноборская сторона,Пулковское шоссе,,196246,node,6845435209,
Пятёрочка,Пятёрочка,"Ломоносов, Ораниенбаумский проспект, 39 литБ",59.8962281,29.7741129,0.3,DUPLICATE_CANDIDATE;REVERSE_GEOCODED,node,7021749585,osm_pbf,True,found,"Ломоносов, Ораниенбаумский проспект, 39 литБ","Пятёрочка, 39 литБ, Ораниенбаумский проспект, Ломоносов, Санкт-Петербург, Северо-Западный федеральный округ, 198412, Россия",Ломоносов,,,Ораниенбаумский проспект,39 литБ,198412,node,7021749585,
Лента,Лента Зоомаркет,"Санкт-Петербург, Хасанская улица, 17 к1",59.9342916,30.4970825,0.1,DUPLICATE_CANDIDATE;REVERSE_GEOCODED,node,7902830463,osm_pbf,True,found,"Санкт-Петербург, Хасанская улица, 17 к1","Лента Зоомаркет, 17 к1, Хасанская улица, округ Пороховые, Санкт-Петербург, Северо-Западный федеральный округ, 195298, Россия",Санкт-Петербург,округ Пороховые,,Хасанская улица,17 к1,195298,node,7902830463,
Лента,ТК «Лента»,"Шушары, Московское шоссе, 18",59.7996951,30.4019836,0.0,SHOP_TAG_MISSING;DUPLICATE_CANDIDATE;REVERSE_GEOCODED,node,8117445855,osm_pbf,True,found,"Шушары, Московское шоссе, 18","Татнефть, 18, Московское шоссе, Шушары, Санкт-Петербург, Северо-Западный федеральный округ, 196626, Россия",Шушары,,,Московское шоссе,18,196626,way,124100904,
Лента,"Таллинское шоссе, 159, торговый центр «Лента»","Санкт-Петербург, Таллинское шоссе",59.8078408,30.1663728,0.0,SHOP_TAG_MISSING;DUPLICATE_CANDIDATE;REVERSE_GEOCODED,node,8702586804,osm_pbf,True,found,"Санкт-Петербург, Таллинское шоссе","Таллинское шоссе, Старо-Паново, округ Горелово, Санкт-Петербург, Северо-Западный федеральный округ, 188510, Россия",Санкт-Петербург,,Старо-Паново,Таллинское шоссе,,188510,way,1085675751,
Лента,"Таллинское шоссе, 159, торговый центр «Лента»","Санкт-Петербург, Таллинское шоссе",59.8069921,30.1650407,0.0,SHOP_TAG_MISSING;DUPLICATE_CANDIDATE;REVERSE_GEOCODED,node,8702586805,osm_pbf,True,found,"Санкт-Петербург, Таллинское шоссе","Таллинское шоссе, Старо-Паново, округ Горелово, Санкт-Петербург, Северо-Западный федеральный округ, 188510, Россия",Санкт-Петербург,,Старо-Паново,Таллинское шоссе,,188510,way,172414705,
Пятёрочка,торговый центр «Пятерочка»,"Красное Село, Стрельнинское шоссе, 4 к1",59.7458887,30.091815,0.0,SHOP_TAG_MISSING;DUPLICATE_CANDIDATE;REVERSE_GEOCODED,node,8716038186,osm_pbf,True,found,"Красное Село, Стрельнинское шоссе, 4 к1","Пятёрочка, 4 к1, Стрельнинское шоссе, Скачки, Красное Село, Санкт-Петербург, Северо-Западный федеральный округ, 198320, Россия",Красное Село,,Скачки,Стрельнинское шоссе,4 к1,198320,way,51869361,
Лента,,"Сосновый Бор, улица Академика Александрова",59.9146589,29.0543988,0.0,SHOP_TAG_MISSING;DUPLICATE_CANDIDATE;REVERSE_GEOCODED,node,8777194990,osm_pbf,True,found,"Сосновый Бор, улица Академика Александрова","улица Академика Александрова, Липово, Сосновый Бор, Сосновоборский городской округ, Ленинградская область, Северо-Западный федеральный округ, 188544, Россия",Сосновый Бор,Сосновоборский городской округ,Липово,улица Академика Александрова,,188544,way,717161488,
Лента,Лента зоомаркет,"Санкт-Петербург, проспект Будённого, 31 к1",59.8518908,30.0931837,0.1,DUPLICATE_CANDIDATE;REVERSE_GEOCODED,node,8839218811,osm_pbf,True,found,"Санкт-Петербург, проспект Будённого, 31 к1","Лента зоомаркет, 31 к1, проспект Будённого, Новосергиево, округ Сосновая поляна, Санкт-Петербург, Северо-Западный федеральный округ, 198218, Россия",Санкт-Петербург,,Новосергиево,проспект Будённого,31 к1,198218,node,8839218811,
Лента,Торговый комплекс «Лента»,"Санкт-Петербург, Стартовая улица, 5",59.8101777,30.3184062,0.0,SHOP_TAG_MISSING;DUPLICATE_CANDIDATE;REVERSE_GEOCODED,node,9156234934,osm_pbf,True,found,"Санкт-Петербург, Стартовая улица, 5","Фольксваген Центр, 5, Стартовая улица, Авиагородок, округ Пулковский меридиан, Санкт-Петербург, Северо-Западный федеральный округ, 196246, Россия",Санкт-Петербург,округ Пулковский меридиан,Авиагородок,Стартовая улица,5,196246,way,58898982,
Лента,Торговый комплекс «Лента»,"Санкт-Петербург, Стартовая улица, 4",59.8100581,30.3183384,0.0,SHOP_TAG_MISSING;DUPLICATE_CANDIDATE;REVERSE_GEOCODED,node,9156234935,osm_pbf,True,found,"Санкт-Петербург, Стартовая улица, 4","Рольф Пулково, 4, Стартовая улица, Авиагородок, округ Пулковский меридиан, Санкт-Петербург, Северо-Западный федеральный округ, 196246, Россия",Санкт-Петербург,округ Пулковский меридиан,Авиагородок,Стартовая улица,4,196246,way,218651486,
Лента,Гипермаркет «Лента»,"Сосновый Бор, Ленинградская улица",59.9142375,29.053929,0.0,SHOP_TAG_MISSING;DUPLICATE_CANDIDATE;REVERSE_GEOCODED,node,9179401029,osm_pbf,True,found,"Сосновый Бор, Ленинградская улица","Гипермаркет «Лента», Ленинградская улица, Сосновый Бор, Сосновоборский городской округ, Ленинградская область, Северо-Западный федеральный округ, 188544, Россия",Сосновый Бор,Сосновоборский городской округ,,Ленинградская улица,,188544,node,8777194995,
Лента,Гипермаркет «Лента»,"Сосновый Бор, Ленинградская улица",59.9135133,29.0542239,0.0,SHOP_TAG_MISSING;DUPLICATE_CANDIDATE;REVERSE_GEOCODED,node,9179401030,osm_pbf,True,found,"Сосновый Бор, Ленинградская улица","Ленинградская улица, Сосновый Бор, Сосновоборский городской округ, Ленинградская область, Северо-Западный федеральный округ, 188544, Россия",Сосновый Бор,Сосновоборский городской округ,,Ленинградская улица,,188544,way,361881486,
Лента,Торговый комплекс «Лента»,"Санкт-Петербург, Дальневосточный проспект",59.9082163,30.4479065,0.0,SHOP_TAG_MISSING;DUPLICATE_CANDIDATE;REVERSE_GEOCODED,node,9219132858,osm_pbf,True,found,"Санкт-Петербург, Дальневосточный проспект","Торговый комплекс «Лента», Дальневосточный проспект, Клочки, Невский округ, Санкт-Петербург, Северо-Западный федеральный округ, 193313, Россия",Санкт-Петербург,,Клочки,Дальневосточный проспект,,193313,node,1734565693,
Лента,Торговый комплекс «Лента»,"Санкт-Петербург, Дальневосточный проспект",59.9081239,30.4482922,0.0,SHOP_TAG_MISSING;DUPLICATE_CANDIDATE;REVERSE_GEOCODED,node,9219132859,osm_pbf,True,found,"Санкт-Петербург, Дальневосточный проспект","Торговый комплекс «Лента», Дальневосточный проспект, Клочки, Невский округ, Санкт-Петербург, Северо-Западный федеральный округ, 193313, Россия",Санкт-Петербург,,Клочки,Дальневосточный проспект,,193313,node,1734565692,
Лента,торговый комплекс «Лента»,"Санкт-Петербург, улица Савушкина",59.9857803,30.2256243,0.0,SHOP_TAG_MISSING;DUPLICATE_CANDIDATE;REVERSE_GEOCODED,node,9230651360,osm_pbf,True,found,"Санкт-Петербург, улица Савушкина","торговый комплекс «Лента», улица Савушкина, Северо-Приморская часть, округ № 65, Санкт-Петербург, Северо-Западный федеральный округ, 197374, Россия",Санкт-Петербург,округ № 65,Северо-Приморская часть,улица Савушкина,,197374,node,1727753150,
ОКЕЙ,Гипермаркет «О'кей»,"Гатчина, Ленинградское шоссе",59.5833167,30.1394592,0.0,SHOP_TAG_MISSING;DUPLICATE_CANDIDATE;REVERSE_GEOCODED,node,9510726585,osm_pbf,True,found,"Гатчина, Ленинградское шоссе","Ленинградское шоссе, Въезд, Гатчина, Гатчинский муниципальный округ, Ленинградская область, Северо-Западный федеральный округ, 188309, Россия",Гатчина,Гатчинский муниципальный округ,Въезд,Ленинградское шоссе,,188309,way,262648965,
Лента,ТК «Лента»,"Шушары, Московское шоссе",59.797788,30.4060922,0.0,SHOP_TAG_MISSING;DUPLICATE_CANDIDATE;REVERSE_GEOCODED,node,9714367856,osm_pbf,True,found,"Шушары, Московское шоссе","ТК «Лента», Московское шоссе, Шушары, Санкт-Петербург, Северо-Западный федеральный округ, 196626, Россия",Шушары,,,Московское шоссе,,196626,node,9714367856,
Лента,,"Санкт-Петербург, Лиговский проспект, 283 литА",59.8979638,30.3344617,0.0,SHOP_TAG_MISSING;DUPLICATE_CANDIDATE;REVERSE_GEOCODED,node,9724294685,osm_pbf,True,found,"Санкт-Петербург, Лиговский проспект, 283 литА","283 литА, Лиговский проспект, Ближняя Рогатка, округ Московская застава, Санкт-Петербург, Северо-Западный федеральный округ, 196084, Россия",Санкт-Петербург,,Ближняя Рогатка,Лиговский проспект,283 литА,196084,node,9724294685,
Лента,Кудрово- ТК Лента,"Кудрово, проспект Строителей",59.9167441,30.51984,0.0,SHOP_TAG_MISSING;DUPLICATE_CANDIDATE;REVERSE_GEOCODED,node,9792628496,osm_pbf,True,found,"Кудрово, проспект Строителей","Кудрово- ТК Лента, проспект Строителей, Северное Кудрово, Кудрово, Заневское городское поселение, Всеволожский район, Ленинградская область, Северо-Западный федеральный округ, 188689, Россия",Кудрово,Всеволожский район,Северное Кудрово,проспект Строителей,,188689,node,9792628496,
ОКЕЙ,Ленинградское шоссе/Гипермаркет «О'кей»,"Гатчина, Ленинградское шоссе, 12А с1",59.5831722,30.1415094,0.0,SHOP_TAG_MISSING;DUPLICATE_CANDIDATE;REVERSE_GEOCODED,node,10140053669,osm_pbf,True,found,"Гатчина, Ленинградское шоссе, 12А с1","12А с1, Ленинградское шоссе, Въезд, Гатчина, Гатчинский муниципальный округ, Ленинградская область, Северо-Западный федеральный округ, 188300, Россия",Гатчина,Гатчинский муниципальный округ,Въезд,Ленинградское шоссе,12А с1,188300,way,1204519039,
ОКЕЙ,Ленинградское шоссе/Гипермаркет «О'кей»,"Гатчина, Ленинградское шоссе, 12А",59.584,30.1423826,0.0,SHOP_TAG_MISSING;DUPLICATE_CANDIDATE;REVERSE_GEOCODED,node,10140053713,osm_pbf,True,found,"Гатчина, Ленинградское шоссе, 12А","Alles, 12А, Ленинградское шоссе, Въезд, Гатчина, Гатчинский муниципальный округ, Ленинградская область, Северо-Западный федеральный округ, 188309, Россия",Гатчина,Гатчинский муниципальный округ,Въезд,Ленинградское шоссе,12А,188309,way,888239367,
Пятёрочка,,"Васкелово, 41К-315",60.3723503,30.3688669,0.0,SHOP_TAG_MISSING;DUPLICATE_CANDIDATE;REVERSE_GEOCODED,node,10188934404,osm_pbf,True,found,"Васкелово, 41К-315","41К-315, Васкелово, Куйвозовское сельское поселение, Всеволожский район, Ленинградская область, Северо-Западный федеральный округ, 188695, Россия",Васкелово,Всеволожский район,,41К-315,,188695,node,10188934404,
Лента,,"Петергоф, Гостилицкое шоссе, 58",59.8696342,29.8271177,0.0,SHOP_TAG_MISSING;DUPLICATE_CANDIDATE;REVERSE_GEOCODED,node,10188989525,osm_pbf,True,found,"Петергоф, Гостилицкое шоссе, 58","58, Гостилицкое шоссе, Старый Петергоф, Петергоф, Санкт-Петербург, Северо-Западный федеральный округ, 198504, Россия",Петергоф,,Старый Петергоф,Гостилицкое шоссе,58,198504,node,10188989525,
Лента,Кудрово- ТК Лента,"Кудрово, проспект Строителей",59.9163774,30.5207287,0.0,SHOP_TAG_MISSING;DUPLICATE_CANDIDATE;REVERSE_GEOCODED,node,10574555717,osm_pbf,True,found,"Кудрово, проспект Строителей","Кудрово- ТК Лента, проспект Строителей, Северное Кудрово, Кудрово, Заневское городское поселение, Всеволожский район, Ленинградская область, Северо-Западный федеральный округ, 188689, Россия",Кудрово,Всеволожский район,Северное Кудрово,проспект Строителей,,188689,node,10574555717,
Лента,1 ПГ,"Сосновый Бор, улица Муравьёва",59.9133544,29.0559641,0.0,SHOP_TAG_MISSING;DUPLICATE_CANDIDATE;REVERSE_GEOCODED,node,10790315430,osm_pbf,True,found,"Сосновый Бор, улица Муравьёва","улица Муравьёва, КП «Фиолент», Сосновый Бор, Сосновоборский городской округ, Ленинградская область, Северо-Западный федеральный округ, 188541, Россия",Сосновый Бор,Сосновоборский городской округ,,улица Муравьёва,,188541,way,717161489,
Лента,2 ПГ,"Сосновый Бор, улица Академика Александрова",59.9148028,29.0548063,0.0,SHOP_TAG_MISSING;DUPLICATE_CANDIDATE;REVERSE_GEOCODED,node,10790315431,osm_pbf,True,found,"Сосновый Бор, улица Академика Александрова","улица Академика Александрова, Липово, Сосновый Бор, Сосновоборский городской округ, Ленинградская область, Северо-Западный федеральный округ, 188544, Россия",Сосновый Бор,Сосновоборский городской округ,Липово,улица Академика Александрова,,188544,way,717161488,
Лента,3 ПГ,"Сосновый Бор, улица Академика Александрова",59.9149754,29.0575809,0.0,SHOP_TAG_MISSING;DUPLICATE_CANDIDATE;REVERSE_GEOCODED,node,10790315432,osm_pbf,True,found,"Сосновый Бор, улица Академика Александрова","улица Академика Александрова, Липово, Сосновый Бор, Сосновоборский городской округ, Ленинградская область, Северо-Западный федеральный округ, 188544, Россия",Сосновый Бор,Сосновоборский городской округ,Липово,улица Академика Александрова,,188544,way,717161488,
Лента,,"Тосно, улица Боярова, 4А",59.5438746,30.8803373,0.0,SHOP_TAG_MISSING;DUPLICATE_CANDIDATE;REVERSE_GEOCODED,node,11251225337,osm_pbf,True,found,"Тосно, улица Боярова, 4А","4А, улица Боярова, Тосно, Тосненское городское поселение, Тосненский район, Ленинградская область, Северо-Западный федеральный округ, 187000, Россия",Тосно,Тосненский район,,улица Боярова,4А,187000,node,11251225337,
Семишагофф,,"Кузьмоловский, Железнодорожная улица, 20",60.1116046,30.4919549,0.0,SHOP_TAG_MISSING;DUPLICATE_CANDIDATE;REVERSE_GEOCODED,node,12881332188,osm_pbf,True,found,"Кузьмоловский, Железнодорожная улица, 20","20, Железнодорожная улица, Кузьмоловский, Кузьмоловское городское поселение, Всеволожский район, Ленинградская область, Северо-Западный федеральный округ, 188663, Россия",Кузьмоловский,Всеволожский район,,Железнодорожная улица,20,188663,relation,5563526,
Пятёрочка,,"Новоселье, Красносельское шоссе, 28В",59.8044207,30.078629,0.0,SHOP_TAG_MISSING;DUPLICATE_CANDIDATE;REVERSE_GEOCODED,node,13190579463,osm_pbf,True,found,"Новоселье, Красносельское шоссе, 28В","Сбербанк, 28В, Красносельское шоссе, Новоселье, Аннинское городское поселение, Ломоносовский район, Ленинградская область, Северо-Западный федеральный округ, 188505, Россия",Новоселье,Ломоносовский район,,Красносельское шоссе,28В,188505,node,13190579463,
Пятёрочка,,"Новоселье, Красносельское шоссе, 28В",59.8044198,30.0786121,0.0,SHOP_TAG_MISSING;DUPLICATE_CANDIDATE;REVERSE_GEOCODED,node,13191119917,osm_pbf,True,found,"Новоселье, Красносельское шоссе, 28В","Т-Банк, 28В, Красносельское шоссе, Новоселье, Аннинское городское поселение, Ломоносовский район, Ленинградская область, Северо-Западный федеральный округ, 188505, Россия",Новоселье,Ломоносовский район,,Красносельское шоссе,28В,188505,node,13191119917,
Лента,Лента,"Приозерск, улица Маяковского",61.0394198,30.1169634,0.3,DUPLICATE_CANDIDATE;REVERSE_GEOCODED,node,13442560801,osm_pbf,True,found,"Приозерск, улица Маяковского","Лента, улица Маяковского, Приозерск, Приозерское городское поселение, Приозерский район, Ленинградская область, Северо-Западный федеральный округ, 188760, Россия",Приозерск,Приозерский район,,улица Маяковского,,188760,node,13442560801,
Пятёрочка,Пятёрочка,"Павлово, Ленинградский проспект, 7А",59.8085222,30.8708017,0.3,DUPLICATE_CANDIDATE;REVERSE_GEOCODED,node,13722605011,osm_pbf,True,found,"Павлово, Ленинградский проспект, 7А","Пятёрочка, 7А, Ленинградский проспект, Павлово, Павловское городское поселение, Кировский район, Ленинградская область, Северо-Западный федеральный округ, 187323, Россия",Павлово,Кировский район,,Ленинградский проспект,7А,187323,node,13722605011,
Лента,Гипермаркет «Лента»,"Бугры, Дорога в Мурино",60.0607958,30.3929423,0.0,SHOP_TAG_MISSING;DUPLICATE_CANDIDATE;REVERSE_GEOCODED,node,13776892165,osm_pbf,True,found,"Бугры, Дорога в Мурино","Дорога в Мурино, Бугры, Бугровское городское поселение, Всеволожский район, Ленинградская область, Северо-Западный федеральный округ, 188660, Россия",Бугры,Всеволожский район,,Дорога в Мурино,,188660,way,460820881,
Лента,Супер Лента,"Пески, Красносельское шоссе",59.7875944,30.0828468,0.0,SHOP_TAG_MISSING;DUPLICATE_CANDIDATE;REVERSE_GEOCODED,node,13895348848,osm_pbf,True,found,"Пески, Красносельское шоссе","Красносельское шоссе, Пески, Аннинское городское поселение, Ломоносовский район, Ленинградская область, Северо-Западный федеральный округ, 188505, Россия",Пески,Ломоносовский район,,Красносельское шоссе,,188505,node,13895369277,
Семишагофф,Семишагофф,"Шлиссельбург, улица Кирова, 8",59.935836821428566,31.02845759285714,0.4,GEOMETRY_UNCERTAIN;DUPLICATE_CANDIDATE,way,137215461,osm_pbf,True,skipped_existing_address,,,,,,,,,,,
Азбука вкуса,,"Санкт-Петербург, улица Нахимова",59.9423737,30.2256948,0.0,SHOP_TAG_MISSING;GEOMETRY_UNCERTAIN;DUPLICATE_CANDIDATE;REVERSE_GEOCODED,way,286817738,osm_pbf,True,found,"Санкт-Петербург, улица Нахимова","улица Нахимова, Морской, округ Морской, Санкт-Петербург, Северо-Западный федеральный округ, 199406, Россия",Санкт-Петербург,округ Морской,Морской,улица Нахимова,,199406,way,286817738,
Пятёрочка,,"Запорожское, 41К-012",60.57081548,30.5119649,0.0,SHOP_TAG_MISSING;GEOMETRY_UNCERTAIN;DUPLICATE_CANDIDATE;REVERSE_GEOCODED,way,502129922,osm_pbf,True,found,"Запорожское, 41К-012","41К-012, Запорожское, Запорожское сельское поселение, Приозерский район, Ленинградская область, Северо-Западный федеральный округ, 188734, Россия",Запорожское,Приозерский район,,41К-012,,188734,way,502129922,
Пятёрочка,Пятёрочка,"Санкт-Петербург, Шлиссельбургский проспект, 26",59.835070359999996,30.512590819999996,0.0,GEOMETRY_UNCERTAIN;DUPLICATE_CANDIDATE;REVERSE_GEOCODED,way,824293742,osm_pbf,True,found,"Санкт-Петербург, Шлиссельбургский проспект, 26","Пятёрочка, 26, Шлиссельбургский проспект, Рыбацкое, округ Рыбацкое, Санкт-Петербург, Северо-Западный федеральный округ, 192076, Россия",Санкт-Петербург,,Рыбацкое,Шлиссельбургский проспект,26,192076,way,61606092,
Пятёрочка,Пятёрочка,"Санкт-Петербург, Нарвский проспект, 22",59.9027111,30.27415473,0.0,GEOMETRY_UNCERTAIN;DUPLICATE_CANDIDATE;REVERSE_GEOCODED,way,1207595723,osm_pbf,True,found,"Санкт-Петербург, Нарвский проспект, 22","22, Нарвский проспект, Екатерингофский округ, Санкт-Петербург, Северо-Западный федеральный округ, 190020, Россия",Санкт-Петербург,Екатерингофский округ,,Нарвский проспект,22,190020,way,51050652,
